City_ID,City,Country,Lat,Lng,Max Temp,Humidity,Cloudiness,Wind Speed,Current Description
0,Mataura,NZ,-46.1927,168.8643,55.99,61,80,7.0,broken clouds
1,Mayuge,UG,0.4597,33.4803,64.85,88,6,5.39,clear sky
2,Mahebourg,MU,-20.4081,57.7,77.0,88,40,4.61,scattered clouds
3,Port Alfred,ZA,-33.5906,26.891,61.43,63,2,19.51,clear sky
4,Kodiak,US,57.79,-152.4072,48.2,61,20,6.91,few clouds
5,Leningradskiy,RU,69.3833,178.4167,34.2,83,95,4.05,overcast clouds
6,Zhanakorgan,KZ,43.9098,67.2495,62.42,35,26,4.56,scattered clouds
7,Punta Arenas,CL,-53.15,-70.9167,48.2,71,0,19.57,clear sky
8,Umm Kaddadah,SD,13.6017,26.6876,72.55,9,17,14.5,few clouds
9,Bredasdorp,ZA,-34.5322,20.0403,46.4,93,3,3.22,clear sky
10,East London,ZA,-33.0153,27.9116,59.11,66,2,11.52,clear sky
11,Tshela,CD,-4.9833,12.9333,72.3,98,100,3.87,light rain
12,Jamestown,US,42.097,-79.2353,37.99,93,90,12.66,mist
13,Seymour,US,38.9592,-85.8903,53.01,61,99,3.44,overcast clouds
14,Hilo,US,19.7297,-155.09,77.0,61,90,5.75,overcast clouds
15,Codrington,AU,-38.2667,141.9667,62.01,57,100,9.89,overcast clouds
16,Faanui,PF,-16.4833,-151.75,82.31,71,46,5.5,scattered clouds
17,Rikitea,PF,-23.1203,-134.9692,77.65,69,100,8.9,overcast clouds
18,Plettenberg Bay,ZA,-34.0527,23.3716,59.22,47,1,6.49,clear sky
19,Yellowknife,CA,62.456,-114.3525,42.8,56,40,8.05,scattered clouds
20,Cabo San Lucas,MX,22.8909,-109.9124,72.0,60,40,3.44,scattered clouds
21,Baft,IR,29.234,56.6057,53.15,36,0,3.22,clear sky
22,Vienna,AT,48.2085,16.3721,43.0,75,40,8.05,scattered clouds
23,Dobryanka,RU,58.4619,56.4165,23.0,80,0,4.47,clear sky
24,Souillac,MU,-20.5167,57.5167,77.0,88,40,4.61,scattered clouds
25,Phalaborwa,ZA,-23.943,31.1411,59.0,72,8,8.05,clear sky
26,Kralendijk,BQ,12.15,-68.2667,80.6,83,75,16.11,broken clouds
27,Barrow,US,71.2906,-156.7887,26.6,74,90,11.5,overcast clouds
28,Raudeberg,NO,61.9875,5.1352,42.01,55,0,5.75,clear sky
29,Hermanus,ZA,-34.4187,19.2345,57.99,79,0,3.0,clear sky
30,Buraydah,SA,26.326,43.975,71.6,60,40,14.97,scattered clouds
31,Ushuaia,AR,-54.8,-68.3,42.8,75,90,4.61,overcast clouds
32,Rio Branco,BR,-9.9747,-67.81,78.8,94,20,5.75,few clouds
33,Hami,CN,42.8,93.45,61.63,10,0,11.27,clear sky
34,Fortuna,US,40.5982,-124.1573,53.01,93,1,10.36,clear sky
35,Poronaysk,RU,49.2167,143.1167,34.83,94,100,9.95,moderate rain
36,Khatanga,RU,71.9667,102.5,10.92,91,100,9.82,light snow
37,Alibag,IN,18.6411,72.8792,82.4,78,0,8.21,haze
38,Atuona,PF,-9.8,-139.0333,80.8,75,100,17.16,overcast clouds
39,Necochea,AR,-38.5473,-58.7368,55.99,98,1,4.0,clear sky
40,Talnakh,RU,69.4865,88.3972,-9.51,95,100,3.65,overcast clouds
41,Arraial Do Cabo,BR,-22.9661,-42.0278,75.27,75,10,18.48,clear sky
42,Amuntai,ID,-2.4177,115.2494,86.4,63,97,1.86,overcast clouds
43,Basoko,CD,1.2391,23.616,72.14,92,100,4.38,light rain
44,Lebu,CL,-37.6167,-73.65,53.17,87,72,9.62,broken clouds
45,Hobart,AU,-42.8794,147.3294,63.0,51,75,17.27,broken clouds
46,Antofagasta,CL,-23.65,-70.4,60.8,82,0,5.75,clear sky
47,Puro,PH,12.4841,123.3827,83.08,71,94,8.52,overcast clouds
48,Norman Wells,CA,65.282,-126.8329,46.4,53,75,8.05,broken clouds
49,Dikson,RU,73.5069,80.5464,-4.86,97,100,5.23,overcast clouds
50,Qaanaaq,GL,77.484,-69.3632,-1.43,89,100,7.34,overcast clouds
51,Srednekolymsk,RU,67.45,153.6833,24.35,71,7,10.98,clear sky
52,Cidreira,BR,-30.1811,-50.2056,70.32,79,100,5.28,overcast clouds
53,Cherskiy,RU,68.75,161.3,21.65,81,96,12.44,overcast clouds
54,Bethel,US,41.3712,-73.414,42.01,82,94,9.22,overcast clouds
55,Ponta Do Sol,PT,32.6667,-17.1,57.99,70,8,4.0,clear sky
56,Mount Pleasant,US,32.7941,-79.8626,60.01,88,1,0.63,clear sky
57,Tabou,CI,4.423,-7.3528,79.03,83,57,5.84,light rain
58,Ilulissat,GL,69.2167,-51.1,5.0,78,90,11.5,overcast clouds
59,Mirpur Khas,PK,25.5251,69.0159,81.23,55,2,4.79,clear sky
60,Georgetown,MY,5.4112,100.3354,81.0,89,20,2.3,few clouds
61,Carnarvon,AU,-24.8667,113.6333,81.1,38,0,9.22,clear sky
62,Cape Town,ZA,-33.9258,18.4232,66.99,87,0,2.3,clear sky
63,Kaitangata,NZ,-46.2817,169.8464,59.0,42,71,5.01,broken clouds
64,Katsuura,JP,35.1333,140.3,64.99,61,100,1.01,moderate rain
65,Victoria,HK,22.2855,114.1577,75.0,90,100,1.01,overcast clouds
66,Westport,US,41.1415,-73.3579,45.0,2,100,11.95,overcast clouds
67,Bonfim,BR,3.0833,-59.95,77.9,78,98,2.33,overcast clouds
68,Mar Del Plata,AR,-38.0023,-57.5575,64.0,100,19,3.44,fog
69,Campo Grande,BR,-20.4428,-54.6464,66.2,94,40,5.75,scattered clouds
70,Ribeira Grande,PT,38.5167,-28.7,62.92,97,86,17.36,overcast clouds
71,Lompoc,US,34.6391,-120.4579,53.6,76,0,11.5,clear sky
72,Rawson,AR,-43.3002,-65.1023,61.7,48,1,3.33,clear sky
73,Batangafo,CF,7.3008,18.2833,82.04,34,99,3.6,overcast clouds
74,Mwinilunga,ZM,-11.7358,24.4293,55.78,78,59,4.61,broken clouds
75,Butka,RU,56.7179,63.7866,34.5,68,2,3.74,clear sky
76,Nisia Floresta,BR,-6.0911,-35.2086,78.8,89,40,4.61,scattered clouds
77,Puerto Ayora,EC,-0.7393,-90.3518,75.99,97,94,3.0,overcast clouds
78,Chuy,UY,-33.6971,-53.4616,65.12,92,0,5.03,clear sky
79,Xuddur,SO,4.1213,43.8894,73.63,85,11,12.5,few clouds
80,Mosquera,CO,4.7059,-74.2302,59.0,72,40,4.61,scattered clouds
81,Nouadhibou,MR,20.931,-17.0347,66.2,77,0,25.32,clear sky
82,Busselton,AU,-33.65,115.3333,69.01,61,16,4.0,few clouds
83,Puerto Suarez,BO,-18.95,-57.8,74.03,79,11,2.44,few clouds
84,New Norfolk,AU,-42.7826,147.0587,63.0,76,100,4.0,light rain
85,Lamu,KE,-2.2717,40.902,80.6,89,1,3.44,clear sky
86,Oneonta,US,42.4529,-75.0638,37.99,86,100,1.99,overcast clouds
87,Saint-Philippe,RE,-21.3585,55.7679,77.0,83,0,4.61,clear sky
88,Severo-Kurilsk,RU,50.6789,156.125,35.78,61,71,9.98,broken clouds
89,Ostrovnoy,RU,68.0531,39.5131,36.66,93,100,23.71,overcast clouds
90,Tasiilaq,GL,65.6145,-37.6368,26.6,100,75,33.38,light snow
91,Los Llanos De Aridane,ES,28.6585,-17.9182,68.0,77,20,14.97,few clouds
92,Clyde River,CA,70.4692,-68.5914,10.4,85,82,20.71,broken clouds
93,Devonport,AU,-41.1667,146.35,61.0,73,70,3.0,broken clouds
94,Adrar,MR,20.5022,-10.0711,69.98,25,0,11.32,clear sky
95,Maha Sarakham,TH,16.3333,103.6667,82.99,94,75,8.05,moderate rain
96,Albany,US,42.6001,-73.9662,41.0,78,97,6.02,light rain
97,Bambous Virieux,MU,-20.3428,57.7575,80.01,88,40,2.3,scattered clouds
98,Sobolevo,RU,54.4299,31.8996,43.92,94,63,5.32,broken clouds
99,Zalari,RU,53.5584,102.5065,51.31,39,8,4.05,clear sky
100,Klaksvik,FO,62.2266,-6.589,46.4,100,75,11.5,mist
101,Manggar,ID,-2.8833,108.2667,85.1,66,97,8.81,overcast clouds
102,Cape Coast,GH,5.1053,-1.2466,79.09,83,98,5.68,moderate rain
103,Port Macquarie,AU,-31.4333,152.9167,59.0,100,75,9.22,light rain
104,Bluff,NZ,-46.6,168.3333,55.99,61,96,7.0,overcast clouds
105,Aksarka,RU,66.5606,67.7975,5.94,91,100,6.49,overcast clouds
106,Baixo Guandu,BR,-19.5189,-41.0158,65.53,94,36,2.42,scattered clouds
107,Stillwater,US,36.1156,-97.0584,46.99,87,90,14.97,overcast clouds
108,Yenagoa,NG,4.9247,6.2642,77.52,86,100,3.13,overcast clouds
109,Yantal,RU,56.8471,105.2542,32.32,88,100,9.17,light snow
110,Hamilton,US,39.1834,-84.5333,51.01,71,1,3.6,clear sky
111,Taltal,CL,-25.4,-70.4833,61.52,87,26,2.57,scattered clouds
112,Pevek,RU,69.7008,170.3133,21.29,83,100,1.25,overcast clouds
113,Broome,US,42.2506,-75.833,39.99,100,90,11.5,overcast clouds
114,Nushki,PK,29.5542,66.0215,68.54,25,0,4.27,clear sky
115,Havelock,US,34.8791,-76.9013,61.0,76,1,5.75,clear sky
116,Port Elizabeth,ZA,-33.918,25.5701,60.8,67,0,14.97,clear sky
117,North Bend,US,43.4065,-124.2243,68.0,82,1,5.75,clear sky
118,Nurota,UZ,40.5614,65.6886,53.6,58,88,9.22,overcast clouds
119,Yaguajay,CU,22.3272,-79.2378,75.7,70,0,3.38,light rain
120,Torbay,CA,47.6666,-52.7314,33.01,93,90,16.11,light snow
121,Kieta,PG,-6.2167,155.6333,81.52,81,100,7.58,light rain
122,Belmonte,BR,-15.8631,-38.8828,73.4,83,0,4.61,clear sky
123,Liku,ID,-0.7275,119.8922,87.1,59,48,1.57,scattered clouds
124,Wajir,KE,1.7471,40.0573,79.3,75,16,14.18,few clouds
125,Simao,CN,22.7886,100.9748,62.28,89,100,1.01,overcast clouds
126,Bindi,SL,9.9167,-11.45,74.08,83,72,4.09,broken clouds
127,Alugan,PH,12.2188,125.4808,83.93,73,89,16.58,overcast clouds
128,Staryy Nadym,RU,65.6118,72.6842,7.81,92,98,17.0,overcast clouds
129,Guerrero Negro,MX,27.9769,-114.0611,59.49,74,0,20.58,clear sky
130,Elko,US,41.0002,-115.5012,45.0,64,70,10.0,broken clouds
131,Hofn,IS,64.2539,-15.2082,42.89,79,21,23.13,few clouds
132,Helong,CN,42.5397,128.9972,50.32,20,100,4.9,overcast clouds
133,Sechura,PE,-5.5569,-80.8222,72.37,70,97,12.97,overcast clouds
134,Cap Malheureux,MU,-19.9842,57.6142,80.01,84,38,4.0,scattered clouds
135,Hue,VN,16.4667,107.6,84.2,74,40,4.61,scattered clouds
136,Port Hardy,CA,50.6996,-127.4199,64.4,42,1,8.05,clear sky
137,Lavrentiya,RU,65.5833,-171.0,33.57,88,100,10.04,overcast clouds
138,Mbuguni,TZ,-3.5667,36.95,71.6,83,75,4.54,broken clouds
139,Avarua,CK,-21.2078,-159.775,82.4,69,90,5.75,light rain
140,Kyra,RU,49.5776,111.9753,44.69,27,10,5.73,clear sky
141,Kapaa,US,22.0752,-159.319,72.0,78,90,3.44,moderate rain
142,Belyy Yar,RU,53.6039,91.3903,35.6,75,40,17.9,snow
143,Bagado,CO,5.4116,-76.4152,73.2,96,99,1.16,overcast clouds
144,Kruisfontein,ZA,-34.0033,24.7314,53.01,80,0,3.0,clear sky
145,Mokhotlong,LS,-29.2894,29.0675,40.21,66,79,1.59,broken clouds
146,Zyryanka,RU,65.75,150.85,22.08,76,8,17.56,clear sky
147,Sitka,US,57.0531,-135.33,48.2,76,75,1.36,broken clouds
148,Hasaki,JP,35.7333,140.8333,64.0,72,75,8.05,broken clouds
149,Vila Franca Do Campo,PT,37.7167,-25.4333,60.8,94,75,9.22,light intensity drizzle
150,Kyabe,TD,9.4515,18.9449,85.06,10,29,5.93,scattered clouds
151,Menongue,AO,-14.6585,17.691,59.04,74,8,3.47,clear sky
152,Zanjan,IR,36.6736,48.4787,49.39,48,75,3.0,broken clouds
153,Lasa,IT,46.6166,10.7002,33.01,69,0,4.61,clear sky
154,Touros,BR,-5.1989,-35.4608,77.0,94,40,3.44,scattered clouds
155,Hashtrud,IR,37.4779,47.0508,47.52,43,62,2.21,broken clouds
156,Jiangyou,CN,31.7667,104.7167,62.85,76,100,3.18,overcast clouds
157,Tiznit,MA,29.5833,-9.5,58.69,75,0,1.61,clear sky
158,Atambua,ID,-9.1061,124.8925,81.9,61,19,2.1,few clouds
159,Santa Isabel Do Rio Negro,BR,-0.4139,-65.0192,73.78,98,100,2.44,overcast clouds
160,Kotagiri,IN,11.4333,76.8833,78.8,78,20,1.81,mist
161,Nizwa,OM,22.9333,57.5333,77.99,28,91,2.53,overcast clouds
162,Pskov,RU,57.8136,28.3496,44.6,42,0,8.95,clear sky
163,Ust-Uda,RU,54.1742,103.0304,43.77,63,9,4.88,clear sky
164,Grand Gaube,MU,-20.0064,57.6608,80.01,82,40,5.01,scattered clouds
165,Thompson,CA,55.7435,-97.8558,44.6,39,40,9.22,scattered clouds
166,Ekuvukeni,ZA,-28.4675,30.1551,51.57,62,100,0.49,overcast clouds
167,Fort Nelson,CA,58.8053,-122.7002,66.2,24,40,3.44,scattered clouds
168,Tuktoyaktuk,CA,69.4541,-133.0374,19.4,86,90,3.44,overcast clouds
169,Yamada,JP,39.4667,141.95,53.01,94,100,14.81,moderate rain
170,Road Town,VG,18.4167,-64.6167,79.0,89,40,11.5,scattered clouds
171,Banda Aceh,ID,5.5577,95.3222,82.72,71,100,7.09,overcast clouds
172,Waingapu,ID,-9.6567,120.2641,83.82,72,47,11.03,scattered clouds
173,Saint George,US,37.1041,-113.5841,62.01,31,90,10.36,overcast clouds
174,Bengkulu,ID,-3.8004,102.2655,80.26,77,90,1.1,overcast clouds
175,Shimanovsk,RU,52.0,127.7,45.41,22,6,5.32,clear sky
176,Santa Rosa,PH,14.3122,121.1114,89.01,67,100,10.0,overcast clouds
177,Enumclaw,US,47.2043,-121.9915,72.0,100,0,1.99,clear sky
178,Balakhta,RU,55.38,91.6,30.25,79,100,11.25,overcast clouds
179,Fairlie,GB,55.756,-4.8556,35.01,86,76,2.3,broken clouds
180,Ligayan,PH,4.6533,119.4706,82.89,76,68,9.44,broken clouds
181,Nantucket,US,41.2835,-70.0995,39.2,93,90,16.11,overcast clouds
182,Sioux Lookout,CA,50.1001,-91.917,37.4,48,75,4.61,broken clouds
183,Kunda,IN,25.7167,81.5167,88.39,21,63,8.25,broken clouds
184,Pangnirtung,CA,66.1451,-65.7125,-9.56,88,18,7.0,few clouds
185,Jumla,NP,29.2747,82.1838,56.79,35,98,3.58,overcast clouds
186,Kendari,ID,-3.945,122.4989,86.76,57,37,3.36,scattered clouds
187,Yaan,NG,7.3833,8.5667,78.42,75,100,9.06,overcast clouds
188,Longyearbyen,SJ,78.2186,15.6401,12.2,67,20,11.5,few clouds
189,Kirakira,SB,-10.4544,161.9205,86.54,69,19,11.99,few clouds
190,Brindisi,IT,40.5833,17.6667,53.6,71,90,13.8,overcast clouds
191,Tsaratanana,MG,-16.7833,47.65,71.87,94,21,2.37,light rain
192,Abu Kamal,SY,34.4506,40.9171,70.27,25,97,5.86,overcast clouds
193,Sola,VU,-13.8833,167.55,82.67,69,8,14.67,clear sky
194,Hithadhoo,MV,-0.6,73.0833,81.57,63,61,3.74,broken clouds
195,Dingle,PH,10.9995,122.6711,87.35,60,96,11.27,light rain
196,Dickinson,US,29.4608,-95.0513,69.01,94,90,13.8,light intensity drizzle
197,Waddan,LY,29.1614,16.139,85.05,10,93,5.37,overcast clouds
198,Salalah,OM,17.0151,54.0924,77.0,73,0,5.75,clear sky
199,Muros,ES,42.7762,-9.0603,46.99,65,58,10.65,broken clouds
200,Myitkyina,MM,25.3833,97.4,79.23,35,100,1.19,overcast clouds
201,Vestmannaeyjar,IS,63.4427,-20.2734,42.1,71,100,21.16,overcast clouds
202,Yulara,AU,-25.2406,130.9889,68.0,34,0,18.41,clear sky
203,Barra Do Corda,BR,-5.5,-45.25,73.33,94,100,2.91,overcast clouds
204,Saint Anthony,US,45.0205,-93.218,53.6,37,1,8.75,clear sky
205,Doha,QA,25.2867,51.5333,71.6,43,0,4.61,clear sky
206,Camopi,GF,3.1655,-52.3158,69.57,99,100,1.28,overcast clouds
207,Esperance,AU,-33.8667,121.9,68.0,56,57,8.05,broken clouds
208,Derzhavinsk,KZ,51.1,66.3167,44.83,94,57,11.16,broken clouds
209,Caraguatatuba,BR,-23.6338,-45.4899,66.2,77,40,4.61,scattered clouds
210,Provideniya,RU,64.3833,-173.3,33.64,89,43,7.49,scattered clouds
211,Nalut,LY,30.3333,10.85,68.65,38,100,3.91,overcast clouds
212,Luderitz,NA,-26.6481,15.1594,78.21,36,89,11.99,overcast clouds
213,Morehead,US,37.2711,-87.1764,51.8,62,1,4.85,clear sky
214,Progreso,MX,21.2833,-89.6667,82.4,89,40,10.36,scattered clouds
215,Geraldton,AU,-28.7667,114.6,78.8,22,100,21.85,overcast clouds
216,Severnyy,RU,50.677,36.5532,39.2,100,40,4.47,scattered clouds
217,Palmer,US,42.1584,-72.3287,39.2,75,75,13.8,broken clouds
218,Santa Cruz Cabralia,BR,-16.2781,-39.0247,73.4,83,0,4.61,clear sky
219,Olafsvik,IS,64.8945,-23.7142,38.19,72,79,28.36,moderate rain
220,Coracora,PE,-15.0333,-73.7833,51.39,81,97,2.71,overcast clouds
221,Carutapera,BR,-1.195,-46.02,75.83,93,100,5.95,heavy intensity rain
222,Yerbogachen,RU,61.2767,108.0108,12.0,69,100,15.79,overcast clouds
223,Caravelas,BR,-17.7125,-39.2481,73.49,84,14,5.08,few clouds
224,Smithers,CA,54.7804,-127.1743,68.0,28,1,6.91,clear sky
225,Flinders,AU,-34.5833,150.8552,66.0,68,100,1.01,light rain
226,Gat,IL,31.61,34.7642,64.0,82,2,2.95,clear sky
227,Kargasok,RU,59.0556,80.8572,21.04,47,4,6.76,clear sky
228,Upernavik,GL,72.7868,-56.1549,-9.38,98,84,7.29,broken clouds
229,Kapit,MY,2.0167,112.9333,84.13,69,95,1.43,overcast clouds
230,Potosi,BO,-19.5836,-65.7531,45.12,59,0,4.18,clear sky
231,Shreveport,US,32.5251,-93.7502,57.2,100,90,5.75,mist
232,Asau,RO,46.4333,26.4,37.0,48,45,4.97,scattered clouds
233,Alice Springs,AU,-23.7,133.8833,70.0,30,0,18.41,clear sky
234,Betioky,MG,-23.7167,44.3833,60.71,58,17,6.08,few clouds
235,Vao,NC,-22.6667,167.4833,74.03,75,57,17.43,broken clouds
236,Willmar,US,45.1219,-95.0433,50.0,57,40,9.22,scattered clouds
237,Havre-Saint-Pierre,CA,50.2334,-63.5986,28.4,86,1,8.05,clear sky
238,Kuminskiy,RU,58.6667,66.5667,32.56,55,24,7.96,few clouds
239,Stokmarknes,NO,68.5646,14.9108,34.0,91,0,7.96,clear sky
240,Chicama,PE,-7.8447,-79.1469,70.34,75,100,5.93,light rain
241,Butaritari,KI,3.0707,172.7902,82.22,74,62,8.93,broken clouds
242,Nome,US,64.5011,-165.4064,30.99,86,90,5.75,mist
243,Iqaluit,CA,63.7506,-68.5145,14.0,73,75,9.22,light snow
244,Alofi,NU,-19.0595,-169.9187,84.2,65,4,9.22,clear sky
245,Lao Cai,VN,22.4833,103.95,73.92,96,100,2.82,overcast clouds
246,Chokurdakh,RU,70.6333,147.9167,9.99,87,8,10.0,clear sky
247,Byron Bay,AU,-28.65,153.6167,68.0,88,90,9.22,overcast clouds
248,Fairbanks,US,64.8378,-147.7164,46.4,49,1,5.75,clear sky
249,Ronne,DK,55.1009,14.7066,41.0,75,40,9.22,scattered clouds
250,Kenai,US,60.5544,-151.2583,51.8,49,1,12.66,clear sky
251,San Quintin,MX,30.4833,-115.95,58.5,73,0,15.08,clear sky
252,Coihaique,CL,-45.5752,-72.0662,45.32,96,100,4.68,overcast clouds
253,Aklavik,CA,68.2191,-135.0107,35.6,55,100,3.44,overcast clouds
254,Moose Factory,CA,51.2585,-80.6094,32.0,80,1,5.75,clear sky
255,Port-Gentil,GA,-0.7193,8.7815,81.9,78,100,7.94,overcast clouds
256,Ahipara,NZ,-35.1667,173.1667,65.88,53,1,14.76,clear sky
257,Narsaq,GL,60.9167,-46.05,17.6,35,6,12.66,clear sky
258,Okato,NZ,-39.2,173.8833,57.0,70,10,17.0,clear sky
259,Maniitsoq,GL,65.4167,-52.9,6.15,89,100,10.16,light snow
260,Puerto Montt,CL,-41.4698,-72.9447,50.0,100,0,3.44,clear sky
261,Muravlenko,RU,63.7898,74.523,14.95,83,58,17.69,broken clouds
262,Gigmoto,PH,13.7796,124.39,83.34,76,100,14.58,overcast clouds
263,Gao,ML,16.6362,1.637,85.39,6,53,7.78,broken clouds
264,Camargo,MX,27.6667,-105.1667,81.19,10,98,18.41,overcast clouds
265,Petropavlovsk-Kamchatskiy,RU,53.0452,158.6483,41.0,33,6,13.42,clear sky
266,Shihezi,CN,44.3,86.0333,63.63,19,30,6.17,scattered clouds
267,Lima,PE,-12.0432,-77.0282,70.0,82,0,8.05,clear sky
268,Mount Gambier,AU,-37.8333,140.7667,62.6,63,90,11.5,overcast clouds
269,Saskylakh,RU,71.9167,114.0833,4.41,93,100,15.1,overcast clouds
270,Vaini,TO,-21.2,-175.2,80.6,69,20,5.75,few clouds
271,Pestravka,RU,52.405,49.9583,50.31,67,24,8.88,few clouds
272,Airai,TL,-8.9266,125.4092,72.84,52,30,5.37,scattered clouds
273,Verkhnyaya Inta,RU,65.9811,60.3094,22.62,94,100,4.52,snow
274,Staraya Poltavka,RU,50.4772,46.4814,55.24,52,9,7.9,clear sky
275,Mahon,ES,39.8885,4.2658,50.0,50,20,9.22,few clouds
276,Nikolskoye,RU,59.7035,30.7861,41.0,45,0,6.71,clear sky
277,Wuning,CN,29.2589,120.2311,70.09,68,100,4.0,overcast clouds
278,Don Sak,TH,9.3168,99.6918,87.01,70,40,4.61,scattered clouds
279,Kirensk,RU,57.7853,108.1119,32.09,88,100,8.14,light snow
280,Beisfjord,NO,68.3751,17.5988,33.8,100,13,4.61,few clouds
281,Yar-Sale,RU,66.8333,70.8333,1.83,95,67,10.25,broken clouds
282,Bosaso,SO,11.2842,49.1816,79.47,70,4,8.61,clear sky
283,Waipawa,NZ,-41.4122,175.5153,57.99,67,20,21.85,few clouds
284,Te Anau,NZ,-45.4167,167.7167,53.96,49,62,3.65,broken clouds
285,Sao Lourenco Do Sul,BR,-31.3653,-51.9783,67.86,91,100,3.56,overcast clouds
286,Muroto,JP,33.2833,134.15,62.6,94,75,5.75,heavy intensity rain
287,Ostersund,SE,63.1792,14.6357,30.2,86,45,5.75,scattered clouds
288,Korla,CN,41.7597,86.1469,62.85,19,76,4.65,broken clouds
289,Hovd,MN,48.0056,91.6419,49.46,20,58,5.14,broken clouds
290,Tonshayevo,RU,57.736,47.0127,31.64,85,0,5.19,clear sky
291,Pisco,PE,-13.7,-76.2167,68.0,83,0,9.22,clear sky
292,Kysyl-Syr,RU,63.8986,122.7617,24.19,81,99,12.68,overcast clouds
293,Praya,CV,14.9215,-23.5087,69.8,73,20,14.97,few clouds
294,Puerto Madero,MX,14.7208,-92.4215,82.4,78,40,9.35,scattered clouds
295,Natal,BR,-5.795,-35.2094,78.8,89,40,4.61,scattered clouds
296,Akyab,MM,20.15,92.9,82.71,56,73,6.15,broken clouds
297,Bandarbeyla,SO,9.4942,50.8122,79.74,74,22,5.88,few clouds
298,Honiara,SB,-9.4333,159.95,84.76,76,58,5.84,broken clouds
299,Walker,US,30.7335,-95.5669,64.0,100,90,6.91,overcast clouds
300,Lorengau,PG,-2.0226,147.2712,84.65,73,86,7.36,overcast clouds
301,Kiama,AU,-34.6833,150.8667,66.0,68,100,1.01,overcast clouds
302,Kapuskasing,CA,49.4169,-82.4331,30.2,93,100,4.61,overcast clouds
303,Half Moon Bay,US,37.4636,-122.4286,57.0,87,90,11.5,mist
304,Emerald,AU,-23.5333,148.1667,82.99,42,0,8.05,clear sky
305,Bolshoy Kamen,RU,43.1225,132.3583,55.4,38,20,6.71,few clouds
306,Sanandaj,IR,35.3144,46.9923,41.0,60,0,3.09,clear sky
307,Yushu,CN,44.8,126.5333,46.94,33,26,6.44,scattered clouds
308,Biltine,TD,14.5333,20.9167,78.19,8,7,12.88,clear sky
309,Sheltozero,RU,61.3667,35.3667,28.29,95,2,3.47,clear sky
310,Sao Filipe,CV,14.8961,-24.4956,71.13,73,0,8.43,clear sky
311,Fort Saint James,CA,54.4333,-124.25,48.13,87,93,2.62,overcast clouds
312,Phanom Sarakham,TH,13.7479,101.3553,91.0,100,77,6.76,broken clouds
313,Walvis Bay,NA,-22.9575,14.5053,80.6,28,88,4.61,overcast clouds
314,Kenora,CA,49.8167,-94.4337,44.6,39,75,5.75,broken clouds
315,Rio Verde De Mato Grosso,BR,-18.9181,-54.8442,74.95,53,1,2.53,clear sky
316,Motril,ES,36.7507,-3.5179,50.0,83,37,1.41,scattered clouds
317,Plast,RU,54.3691,60.8136,41.11,73,100,3.89,overcast clouds
318,Kavieng,PG,-2.5744,150.7967,80.4,77,100,4.83,overcast clouds
319,Pangody,RU,65.85,74.4859,6.58,93,100,18.34,overcast clouds
320,Alyangula,AU,-13.8483,136.4192,86.0,66,75,11.5,broken clouds
321,Sisimiut,GL,66.9395,-53.6735,5.22,72,100,5.73,overcast clouds
322,Kudahuvadhoo,MV,2.6708,72.8944,82.29,70,84,6.53,broken clouds
323,Estacion Coahuila,MX,32.1939,-115.0017,82.4,10,1,4.61,clear sky
324,Abu Samrah,SY,35.3029,37.1841,62.15,42,2,5.32,clear sky
325,Vanderhoof,CA,54.0166,-124.0198,54.5,72,25,4.45,scattered clouds
326,Komsomolskiy,UZ,40.4272,71.7189,60.8,41,11,6.91,few clouds
327,Karratha,AU,-20.7377,116.8463,88.79,33,1,19.01,clear sky
328,Bhabua,IN,25.05,83.6167,92.84,15,82,6.64,broken clouds
329,Douglas,US,41.3,-96.167,44.01,81,90,6.91,light rain
330,Mandalgovi,MN,45.7625,106.2708,44.44,20,0,12.53,clear sky
331,Rock Sound,BS,24.9,-76.2,75.58,71,0,8.16,clear sky
332,Port Lincoln,AU,-34.7333,135.8667,64.4,49,7,5.44,clear sky
333,Abashiri,JP,44.0213,144.2697,59.0,47,75,29.93,dust
334,San Pedro,PH,14.35,121.0167,89.01,62,90,5.75,overcast clouds
335,Tuatapere,NZ,-46.1333,167.6833,55.99,60,94,5.99,overcast clouds
336,Saldanha,ZA,-33.0117,17.9442,62.6,55,0,3.44,clear sky
337,Saint-Francois,FR,46.4154,3.9054,32.0,80,0,4.61,clear sky
338,Neyshabur,IR,36.2133,58.7958,56.26,49,11,2.46,few clouds
339,Makakilo City,US,21.3469,-158.0858,78.8,57,90,8.05,overcast clouds
340,Kasongo,CD,-4.45,26.6667,65.44,95,71,2.98,broken clouds
341,Santa Cruz,BO,-17.8,-63.1667,73.53,76,0,4.74,clear sky
342,Zhucheng,CN,35.9947,119.3975,56.98,17,0,18.66,clear sky
343,Avera,US,33.194,-82.5271,55.99,76,1,4.03,clear sky
344,Oranjemund,NA,-28.55,16.4333,74.7,41,94,4.25,overcast clouds
345,San Ramon,US,37.7799,-121.978,66.99,39,1,13.8,clear sky
346,Okhotsk,RU,59.3833,143.3,26.26,88,76,9.64,broken clouds
347,Kisangani,CD,0.5167,25.2,71.44,92,100,1.39,overcast clouds
348,Peniche,PT,39.3558,-9.3811,54.0,91,97,5.57,overcast clouds
349,San Cristobal,VE,7.7669,-72.225,84.2,61,40,6.91,scattered clouds
350,Abasha,GE,42.2096,42.2211,51.8,93,90,5.75,overcast clouds
351,Lake Cowichan,CA,48.825,-124.0546,69.8,37,1,5.75,clear sky
352,Lazo,RU,43.3817,133.9014,56.57,31,15,2.13,few clouds
353,Areia Branca,BR,-4.9561,-37.1369,78.42,79,78,13.67,broken clouds
354,Ola,RU,59.5833,151.2833,23.67,84,100,6.71,overcast clouds
355,General Roca,AR,-39.0333,-67.5833,50.0,71,0,6.15,clear sky
356,Chimbote,PE,-9.0853,-78.5783,66.45,87,100,5.77,overcast clouds
357,Marsassoum,SN,12.8275,-15.9806,75.2,78,0,2.3,clear sky
358,Berlevag,NO,70.8578,29.0864,39.52,87,100,34.31,light rain
359,Kanye,BW,-24.9667,25.3327,55.18,90,0,11.61,clear sky
360,Sur,OM,22.5667,59.5289,83.41,44,84,4.59,broken clouds
361,La Ronge,CA,55.1001,-105.2842,46.4,39,67,2.3,broken clouds
362,Kelso,US,46.1468,-122.9084,78.8,19,1,5.75,clear sky
363,Alice,US,27.7523,-98.0697,80.6,83,90,9.22,overcast clouds
364,Pathein,MM,16.7833,94.7333,82.65,57,18,0.74,few clouds
365,Saint-Pierre,RE,-21.3393,55.4781,77.0,83,0,4.61,clear sky
366,Ambilobe,MG,-13.2,49.05,72.95,95,21,2.73,few clouds
367,Meulaboh,ID,4.1363,96.1285,78.89,79,100,2.13,overcast clouds
368,Krasnoselkup,RU,65.7,82.4667,7.95,92,100,13.44,light snow
369,Tiksi,RU,71.6872,128.8694,4.73,97,100,10.94,overcast clouds
370,Talas,TR,38.6908,35.5538,44.6,87,40,1.14,scattered clouds
371,Aykhal,RU,66.0,111.5,6.03,92,100,20.07,overcast clouds
372,Dawlatabad,AF,36.4141,64.9053,62.2,32,3,2.24,clear sky
373,Barraute,CA,48.4335,-77.6328,44.6,70,75,11.5,broken clouds
374,Roebourne,AU,-20.7833,117.1333,88.66,33,0,18.5,clear sky
375,Mokhsogollokh,RU,61.4681,128.9203,37.47,93,100,10.04,light rain
376,Concarneau,FR,47.875,-3.9225,37.4,87,0,4.61,clear sky
377,Raton,US,36.9034,-104.4391,30.99,86,90,6.91,light snow
378,Barra Velha,BR,-26.6322,-48.6847,73.4,88,40,3.44,scattered clouds
379,Etchojoa,MX,26.9167,-109.6333,80.01,44,97,6.55,overcast clouds
380,Cayenne,GF,4.9333,-52.3333,81.0,78,75,4.61,broken clouds
381,Imbituba,BR,-28.24,-48.6703,73.4,83,75,4.61,broken clouds
382,Kawalu,ID,-7.3817,108.2082,81.36,69,83,3.78,broken clouds
383,Vila Velha,BR,-20.3297,-40.2925,69.8,94,75,3.44,broken clouds
384,Bocas Del Toro,PA,9.3333,-82.25,64.99,99,100,4.0,overcast clouds
385,Laranja Da Terra,BR,-19.8989,-41.0567,63.79,94,20,3.58,few clouds
386,Dunedin,NZ,-45.8742,170.5036,57.0,45,41,8.99,scattered clouds
387,Qaqortoq,GL,60.7167,-46.0333,17.6,35,0,12.66,clear sky
388,Takoradi,GH,4.8845,-1.7554,78.4,86,80,4.88,moderate rain
389,Japura,ID,-0.3167,102.35,74.59,96,100,2.06,moderate rain
390,Tarata,BO,-17.6167,-66.0167,62.01,59,17,4.9,few clouds
391,Panguipulli,CL,-39.6333,-72.3333,48.2,100,100,1.14,overcast clouds
392,Do Gonbadan,IR,30.3586,50.7981,55.4,41,0,2.66,clear sky
393,Chara,RU,56.9064,118.2631,33.24,94,95,2.35,overcast clouds
394,Grindavik,IS,63.8424,-22.4338,39.2,75,75,25.32,broken clouds
395,Zhezkazgan,KZ,47.8043,67.7144,53.55,47,93,5.68,overcast clouds
396,Martapura,ID,-3.4167,114.85,86.0,66,20,3.44,few clouds
397,Burkburnett,US,34.0979,-98.5706,52.0,76,90,20.71,overcast clouds
398,Namatanai,PG,-3.6667,152.4333,82.35,73,95,5.21,light rain
399,Vostok,RU,46.4856,135.8833,47.88,38,87,10.65,overcast clouds
400,Uberaba,BR,-19.7483,-47.9319,66.2,94,75,8.05,broken clouds
401,Tabuk,PH,17.4189,121.4443,85.82,58,100,3.4,overcast clouds
402,Kitakyushu,JP,33.8333,130.8333,63.0,88,75,8.05,broken clouds
403,Greytown,ZA,-29.0642,30.5928,43.45,92,98,1.45,overcast clouds
404,Margate,GB,51.3813,1.3862,42.01,76,1,4.0,clear sky
405,Maarianhamina,AX,60.0973,19.9348,35.6,64,0,6.91,clear sky
406,Aksu,CN,41.1231,80.2644,60.08,43,100,6.24,overcast clouds
407,Ancud,CL,-41.8697,-73.8203,53.01,100,20,5.75,few clouds
408,Richards Bay,ZA,-28.783,32.0377,63.34,75,98,4.81,overcast clouds
409,Darhan,MN,49.4867,105.9228,48.65,32,5,15.01,clear sky
410,Zlobin,HR,45.2924,14.6541,48.2,37,20,8.05,few clouds
411,Ratanpur,IN,22.3,82.1667,85.51,21,4,2.95,clear sky
412,Anjiang,CN,27.3194,110.1031,67.75,77,100,3.0,overcast clouds
413,Oussouye,SN,12.485,-16.5469,75.2,78,0,2.3,clear sky
414,Raga,SS,8.4596,25.678,76.03,14,28,3.0,scattered clouds
415,Bulungu,CD,-4.55,18.6,71.38,94,99,1.92,overcast clouds
416,Anshun,CN,26.25,105.9333,53.78,88,100,7.2,overcast clouds
417,Nivala,FI,63.9167,24.9667,29.88,94,7,1.66,clear sky
418,Loja,EC,-3.9931,-79.2042,56.61,98,100,1.54,light rain
419,Auki,SB,-8.7676,160.7034,84.13,74,27,2.73,scattered clouds
420,Yagodnoye,RU,62.55,149.6667,23.18,66,5,4.79,clear sky
421,Bambanglipuro,ID,-7.95,110.2833,84.06,69,94,6.96,overcast clouds
422,Verkhnevilyuysk,RU,63.4453,120.3167,22.91,75,78,13.24,broken clouds
423,Victor Harbor,AU,-35.5667,138.6167,64.99,57,100,7.2,overcast clouds
424,Marzuq,YE,14.4,46.4667,65.16,44,8,2.19,clear sky
425,Horsham,GB,51.064,-0.3272,34.0,80,0,2.3,clear sky
426,Nuuk,GL,64.1835,-51.7216,12.2,73,90,2.3,light snow
427,Miraflores,MX,19.2167,-98.8083,75.2,23,40,9.22,scattered clouds
428,Pozo Colorado,PY,-23.4923,-58.7972,70.34,89,11,6.31,few clouds
429,Acapulco,MX,16.8634,-99.8901,80.6,74,75,11.5,broken clouds
430,Namibe,AO,-15.1961,12.1522,81.3,65,7,6.82,clear sky
431,Kloulklubed,PW,7.0419,134.2556,82.4,83,90,14.97,overcast clouds
432,Balabac,PH,7.9868,117.0645,84.25,71,100,11.92,overcast clouds
433,Svetlogorsk,BY,52.6333,29.7333,40.91,96,71,6.04,broken clouds
434,Faya,SA,18.3851,42.4509,60.8,27,0,6.64,clear sky
435,Qandala,SO,11.472,49.8728,79.66,70,5,6.46,clear sky
436,Altay,CN,47.8667,88.1167,52.74,31,52,3.38,broken clouds
437,Salinopolis,BR,-0.6136,-47.3561,78.94,84,98,8.9,overcast clouds
438,Ambon,ID,-3.6954,128.1814,89.6,62,40,6.91,scattered clouds
439,Iquitos,PE,-3.7481,-73.2472,78.8,89,75,3.44,light rain
440,Beringovskiy,RU,63.05,179.3167,33.39,92,100,14.88,overcast clouds
441,Port Hawkesbury,CA,45.6169,-61.3485,36.0,75,90,14.97,overcast clouds
442,Roald,NO,62.5833,6.1333,37.99,65,0,9.22,clear sky
443,San Patricio,US,28.017,-97.5169,78.8,94,90,6.91,overcast clouds
444,Brainerd,US,46.358,-94.2008,48.2,43,1,6.91,clear sky
445,Great Yarmouth,GB,52.6083,1.7305,36.0,86,3,1.14,clear sky
446,Sangar,RU,63.9242,127.4739,28.72,80,67,12.21,light snow
447,Puerto Del Rosario,ES,28.5004,-13.8627,66.2,77,20,12.66,few clouds
448,Phuket,TH,8.0,98.25,88.0,78,20,5.75,few clouds
449,Yumen,CN,40.2833,97.2,50.18,12,70,10.25,broken clouds
450,Yinchuan,CN,38.4681,106.2731,47.1,16,6,2.8,clear sky
451,Dragor,DK,55.5946,12.6664,45.0,53,75,13.8,broken clouds
452,Jieshi,CN,22.8134,115.8257,74.84,75,98,10.87,overcast clouds
453,Manokwari,ID,-0.8667,134.0833,84.02,69,100,6.51,overcast clouds
454,Port Augusta,AU,-32.5,137.7667,66.0,55,75,10.36,broken clouds
455,Vila,PT,42.0304,-8.1588,43.0,82,64,3.0,broken clouds
456,Sugod,PH,12.987,124.0805,81.23,80,100,10.51,overcast clouds
457,Hoyerswerda,DE,51.4333,14.25,39.0,81,100,3.0,light rain
458,Somerset East,ZA,-32.7217,25.588,49.62,51,0,5.08,clear sky
459,Kirillov,RU,59.863,38.3813,33.42,88,25,5.26,scattered clouds
460,Bodden Town,KY,19.2833,-81.25,80.6,74,40,8.05,scattered clouds
461,Honningsvag,NO,70.9821,25.9704,39.81,83,100,34.63,overcast clouds
462,Bathsheba,BB,13.2167,-59.5167,80.6,61,40,17.27,scattered clouds
463,Constitucion,CL,-35.3333,-72.4167,55.96,84,100,7.54,overcast clouds
464,Sampit,ID,-2.5333,112.95,86.49,62,100,3.04,overcast clouds
465,Opunake,NZ,-39.4556,173.8583,57.0,91,18,3.0,few clouds
466,Tezu,IN,27.9167,96.1667,82.27,34,70,2.82,broken clouds
467,Skjervoy,NO,70.0311,20.9714,38.89,78,91,10.27,overcast clouds
468,Philadelphia,US,39.9523,-75.1638,50.0,62,90,10.36,overcast clouds
469,Hit,IQ,33.6416,42.8251,70.34,27,47,6.02,scattered clouds
470,Leshukonskoye,RU,64.8989,45.7622,33.98,87,100,7.4,overcast clouds
471,Cockburn Town,TC,21.4612,-71.1419,76.8,71,20,9.24,few clouds
472,Boende,CD,-0.2167,20.8667,70.61,99,100,2.04,overcast clouds
473,Bridgetown,BB,13.1,-59.6167,80.6,61,40,17.27,scattered clouds
474,Cedar City,US,37.6775,-113.0619,41.0,65,20,11.5,few clouds
475,Kalianget,ID,-7.05,113.9333,83.17,69,7,10.27,clear sky
476,Wembley,AU,-31.9333,115.8,77.0,40,0,9.22,clear sky
477,Gorontalo,ID,0.5412,123.0595,87.19,61,91,4.12,overcast clouds
478,Praxedis Guerrero,MX,31.3667,-106.0167,71.01,15,90,0.81,overcast clouds
479,Pontianak,ID,-0.0333,109.3333,84.2,84,40,3.44,scattered clouds
480,Bako,ET,5.7833,36.5667,63.48,75,62,4.43,broken clouds
481,Vila Do Maio,CV,15.1333,-23.2167,69.8,73,20,14.97,few clouds
482,Khani,GE,41.9563,42.9566,51.8,93,90,5.75,overcast clouds
483,Russkaya Polyana,UA,49.417,31.9201,41.16,92,100,9.44,overcast clouds
484,Lakes Entrance,AU,-37.8811,147.981,61.0,58,1,1.01,clear sky
485,Mindelo,CV,16.8901,-24.9804,69.8,73,20,26.46,few clouds
486,Washougal,US,45.5826,-122.3534,75.2,16,1,9.22,clear sky
487,Kandrian,PG,-6.2167,149.55,84.43,71,82,5.03,light rain
488,Husavik,IS,66.0449,-17.3389,41.0,60,75,13.8,broken clouds
489,Ulaangom,MN,49.9811,92.0667,48.92,31,24,1.74,few clouds
490,Bubaque,GW,11.2833,-15.8333,76.75,74,74,15.46,broken clouds
491,Lumeje,AO,-11.55,20.7833,63.34,77,98,4.34,overcast clouds
492,Kyrylivka,UA,46.3759,35.3675,42.57,85,2,9.55,clear sky
493,Mersing,MY,2.4312,103.8405,84.2,89,40,1.14,scattered clouds
494,Mecca,SA,21.4267,39.8261,81.25,47,56,2.71,broken clouds
495,Chengde,CN,40.9725,117.9361,52.29,16,3,17.78,clear sky
496,Kulhudhuffushi,MV,6.6221,73.07,83.08,69,90,0.58,overcast clouds
497,Shingu,JP,33.7333,135.9833,60.8,94,75,5.75,moderate rain
498,San Rafael,AR,-34.6177,-68.3301,68.95,57,98,5.39,overcast clouds
499,San Luis,AR,-33.295,-66.3356,67.08,61,27,4.88,scattered clouds
500,Sembakung,ID,3.8167,117.25,82.4,78,40,5.75,scattered clouds
501,Sabha,LY,27.0377,14.4283,83.88,10,96,7.52,overcast clouds
502,Watertown,US,42.3709,-71.1828,37.99,87,90,14.97,overcast clouds
503,Kamenka,RU,51.3223,42.7678,53.01,55,71,5.46,light rain
504,Wanaka,NZ,-44.7,169.15,54.0,65,19,1.01,few clouds
505,Bossangoa,CF,6.4926,17.4552,76.82,47,92,5.35,overcast clouds
506,Saint-Louis,SN,16.3333,-15.0,79.57,28,0,14.83,clear sky
507,Rudbar,AF,30.15,62.6,70.14,16,64,4.23,broken clouds
508,Moerai,PF,-22.4333,-151.3333,80.11,78,0,18.01,light rain
509,Riyadh,SA,24.6877,46.7219,75.2,12,0,4.61,clear sky
510,Veselynove,UA,47.3567,31.2349,39.07,89,32,6.62,scattered clouds
511,Saint-Denis,FR,48.9167,2.3333,43.0,81,0,9.22,clear sky
512,Contai,IN,21.7786,87.7536,84.92,63,4,16.11,clear sky
513,Almaznyy,RU,48.0448,40.045,50.0,93,40,4.47,mist
514,Paamiut,GL,61.994,-49.6678,10.53,65,75,13.65,broken clouds
515,Celina,US,40.5489,-84.5702,52.0,64,88,5.01,overcast clouds
516,Morondava,MG,-20.2833,44.2833,72.25,75,95,15.59,overcast clouds
517,Borba,BR,-4.3878,-59.5939,74.97,97,100,2.93,overcast clouds
518,Kupang,ID,-10.1667,123.5833,84.22,66,41,9.13,scattered clouds
519,Trairi,BR,-3.2778,-39.2689,78.19,86,96,7.56,overcast clouds
520,Fort-Shevchenko,KZ,44.5086,50.263,52.16,72,5,3.51,clear sky
521,Bozoum,CF,6.3193,16.3799,76.32,55,100,3.42,overcast clouds
522,Stornoway,GB,58.2093,-6.3865,46.4,81,90,9.22,overcast clouds
523,Shelomi,IL,33.0747,35.1461,66.42,57,14,7.58,few clouds
524,Ugoofaaru,MV,5.6667,73.0,83.12,69,99,2.28,overcast clouds
525,Beaumont,US,30.0861,-94.1019,64.4,94,90,9.22,overcast clouds
526,Palu,ID,-0.8917,119.8707,89.19,57,44,2.21,scattered clouds
527,Turayf,SA,31.6725,38.6637,60.8,36,0,9.22,clear sky
528,Igarka,RU,67.4667,86.5833,-9.62,93,99,2.06,overcast clouds
529,Acarau,BR,-2.8856,-40.12,78.28,87,99,11.65,overcast clouds
530,Winchester,GB,51.0651,-1.3187,36.0,86,7,3.44,clear sky
531,Tinskoy,RU,56.1525,96.9161,30.11,83,100,8.7,light snow
532,Wyndham,US,37.6985,-77.6125,53.6,47,1,3.44,clear sky
533,Nago,JP,26.5881,127.9761,75.2,83,90,12.66,light rain
534,Casablanca,MA,33.5928,-7.6192,64.0,100,40,5.66,scattered clouds
535,Pacifica,US,37.6138,-122.4869,54.0,71,40,20.71,scattered clouds
536,High Level,CA,58.5169,-117.136,55.4,30,75,6.91,broken clouds
537,Comodoro Rivadavia,AR,-45.8667,-67.5,55.4,62,0,6.91,clear sky
538,Kuzhener,RU,56.8111,48.9128,32.94,80,1,8.48,clear sky
539,Yakeshi,CN,49.2833,120.7333,29.39,87,6,4.63,clear sky
540,Ternate,ID,0.8,127.4,84.33,71,100,12.62,overcast clouds
541,Sinnamary,GF,5.3833,-52.95,78.42,81,75,11.18,broken clouds
542,Bagdarin,RU,54.4333,113.6,42.42,42,100,8.25,overcast clouds
543,Sibolga,ID,1.7427,98.7792,75.43,91,100,2.73,overcast clouds
544,Voznesenye,RU,61.0106,35.4781,28.53,94,7,4.45,clear sky
545,Castro,BR,-24.7911,-50.0119,58.75,93,100,3.27,overcast clouds
546,Shakawe,BW,-18.3667,21.85,58.68,40,24,5.39,few clouds
547,Joshimath,IN,30.5667,79.5667,52.18,91,100,2.06,overcast clouds
548,Dorado,PR,18.4588,-66.2677,78.01,89,13,8.72,few clouds
549,Inuvik,CA,68.3499,-133.7218,35.6,55,100,3.44,overcast clouds
550,Kavaratti,IN,10.5669,72.642,83.71,72,5,4.94,clear sky
551,Alanya,TR,36.5438,31.9998,57.2,77,0,3.44,clear sky
552,Kimbe,PG,-5.5502,150.1429,81.27,82,99,4.03,light rain
553,Hualmay,PE,-11.0964,-77.6139,67.37,85,95,8.28,overcast clouds
554,Khuzdar,PK,27.7384,66.6434,68.2,28,0,3.71,clear sky
555,Tarko-Sale,RU,64.9225,77.785,16.0,71,99,1.99,snow
556,Saint-Michel-Des-Saints,CA,46.6834,-73.9159,41.0,75,100,0.27,overcast clouds
557,Vidim,RU,56.4088,103.1106,34.23,79,100,8.63,overcast clouds
558,Tineo,ES,43.3376,-6.4145,42.8,61,0,5.75,clear sky
559,Belfast,GB,54.5833,-5.9333,39.2,87,67,3.44,broken clouds
560,Ayan,RU,56.45,138.1667,30.24,83,18,5.55,few clouds
561,Moctezuma,MX,29.8,-109.6667,72.14,16,71,9.69,broken clouds
562,Vermilion,US,40.1667,-87.7506,53.01,54,40,6.91,scattered clouds
563,Porto Novo,BJ,6.4965,2.6036,82.4,78,20,6.91,few clouds
564,Neryungri,RU,56.6709,124.6491,35.64,75,29,12.68,scattered clouds
565,Itarema,BR,-2.9248,-39.9167,77.92,87,94,10.29,overcast clouds
566,Price,US,39.5994,-110.8107,39.2,41,1,13.8,clear sky
567,Bograd,RU,54.2344,90.8328,35.6,75,40,17.9,light snow
568,Anadyr,RU,64.75,177.4833,35.6,80,0,24.61,clear sky
569,Lethem,GY,3.3803,-59.7968,76.89,82,99,6.2,overcast clouds
570,Camana,PE,-16.6228,-72.7111,67.87,84,23,7.58,few clouds
571,Awjilah,LY,29.1081,21.2869,82.6,13,1,14.32,clear sky
572,Wichita Falls,US,33.9137,-98.4934,53.6,71,90,14.97,overcast clouds
573,Russell,US,32.3502,-85.1999,60.8,88,75,1.81,broken clouds
574,Kochubey,RU,44.3861,46.5825,53.28,57,93,7.54,overcast clouds
575,Zunyi,CN,27.6867,106.9072,56.1,85,100,3.02,overcast clouds
576,Jacqueville,CI,5.2052,-4.4146,82.4,89,40,3.44,light rain
577,Stepnyak,KZ,52.8339,70.7803,37.06,76,67,11.07,broken clouds
578,Lagoa,PT,39.05,-27.9833,61.86,94,100,11.77,overcast clouds
579,Sulangan,PH,11.1373,123.7228,81.59,79,100,13.58,overcast clouds
580,Udachnyy,RU,66.4167,112.4,10.09,92,97,29.51,light snow
581,Gombe,NG,10.2897,11.1673,81.68,49,100,6.29,overcast clouds
582,Phan Thiet,VN,10.9333,108.1,84.81,65,94,2.73,overcast clouds
583,Salinas,US,36.6777,-121.6555,55.0,76,20,11.5,few clouds
584,Brae,GB,60.3964,-1.353,43.07,86,100,12.03,overcast clouds
585,Barra Patuca,HN,15.8,-84.2833,79.83,80,35,16.73,scattered clouds
586,San Ramon De La Nueva Oran,AR,-23.1322,-64.326,73.99,93,47,3.29,scattered clouds
587,Urumqi,CN,43.801,87.6005,66.2,12,0,8.95,clear sky
588,Buckeye,US,33.3703,-112.5838,77.0,14,0,4.61,haze
589,Stryn,NO,61.9045,6.7226,25.0,86,9,5.91,clear sky
590,Manado,ID,1.487,124.8455,89.6,58,20,9.22,few clouds
591,Bulawayo,ZW,-20.15,28.5833,56.34,88,97,16.33,overcast clouds
592,Usinsk,RU,65.9939,57.5281,26.71,82,100,23.73,overcast clouds
593,Christchurch,NZ,-43.5333,172.6333,57.99,62,20,9.22,few clouds
594,Sintea Mare,RO,46.5167,21.6,35.01,93,40,3.44,scattered clouds
595,Kununurra,AU,-15.7667,128.7333,89.6,29,40,14.97,scattered clouds
596,Winsum,NL,53.33,6.5208,37.99,90,14,10.65,few clouds
597,Labuhan,ID,-6.8844,112.2051,83.48,72,26,3.62,scattered clouds
598,Swabi,PK,34.1199,72.4699,60.49,89,100,5.53,overcast clouds
599,Babocsa,HU,46.0416,17.3433,36.03,80,97,4.61,overcast clouds
600,Mitu,CO,1.1983,-70.1733,72.88,97,100,3.38,overcast clouds
601,Maceio,BR,-9.6658,-35.7353,75.2,94,75,3.44,broken clouds
602,Dicabisagan,PH,17.0818,122.4157,84.11,60,100,7.34,overcast clouds
603,Rocha,UY,-34.4833,-54.3333,61.34,94,0,2.15,clear sky
604,Deputatskiy,RU,69.3,139.9,8.11,84,98,4.54,overcast clouds
605,Ponca City,US,36.707,-97.0856,45.0,81,90,11.5,overcast clouds
606,Kinna,SE,57.5073,12.6946,46.0,56,0,11.5,clear sky
607,Nouakchott,MR,18.0858,-15.9785,71.6,64,0,14.97,clear sky
608,Moyale,KE,3.5167,39.0584,66.81,81,10,1.86,clear sky
609,Arman,RU,59.7,150.1667,24.66,80,100,3.65,overcast clouds
610,Vardo,NO,70.3705,31.1107,40.08,76,100,30.71,overcast clouds
611,Aasiaat,GL,68.7098,-52.8699,4.71,83,100,10.18,overcast clouds
612,Vanimo,PG,-2.6741,141.3028,75.72,93,100,4.88,heavy intensity rain
613,Arawa,PG,-6.2132,155.5367,82.6,80,100,5.21,light rain
614,Pekan,MY,3.4836,103.3996,86.0,74,20,3.44,few clouds
615,San Carlos De Bariloche,AR,-41.1456,-71.3082,54.0,53,40,4.61,scattered clouds
616,Thinadhoo,MV,0.5333,72.9333,81.61,66,78,4.61,broken clouds
617,Koboko,UG,3.4136,30.9599,64.8,84,43,4.97,scattered clouds
618,Maraa,BR,-1.8333,-65.3667,73.69,98,100,4.16,overcast clouds
619,Gornopravdinsk,RU,60.05,69.9,30.79,53,100,9.42,overcast clouds
620,Colon,PA,9.3592,-79.9014,77.0,92,100,3.0,overcast clouds
621,Andenes,NO,69.3143,16.1194,35.6,87,11,10.36,few clouds
622,Sergeyevka,KZ,53.88,67.4158,36.9,85,45,7.96,scattered clouds
623,Miami Shores,US,25.8632,-80.1928,79.0,61,1,8.05,clear sky
624,Egvekinot,RU,66.3167,-179.1667,29.89,98,100,12.93,overcast clouds
625,Santa Vitoria Do Palmar,BR,-33.5189,-53.3681,65.37,93,0,4.88,clear sky
626,Boa Vista,BR,2.8197,-60.6733,78.8,89,75,2.3,broken clouds
627,Bara,NG,10.3744,10.7288,79.5,45,97,3.22,overcast clouds
628,Kajaani,FI,64.2273,27.7285,24.8,86,0,1.14,clear sky
629,Wamba,NG,8.9333,8.6,78.8,73,100,3.62,overcast clouds
630,Vestmanna,FO,62.1564,-7.1664,46.4,100,75,11.5,mist
631,Trelew,AR,-43.249,-65.3051,61.65,41,2,6.22,clear sky
632,Belyy Gorodok,RU,56.965,37.5125,42.46,85,97,9.19,overcast clouds
633,Dobroye,RU,52.8678,39.8109,45.0,75,89,5.82,overcast clouds
634,Beloha,MG,-25.1667,45.05,63.55,66,64,12.62,light rain
635,Ulaanbaatar,MN,47.9077,106.8832,37.4,41,0,2.24,clear sky
636,Saint-Joseph,RE,-21.3667,55.6167,77.0,83,0,4.61,clear sky
637,Banjar,ID,-8.19,114.9675,86.0,74,20,8.05,few clouds
638,Kamaishi,JP,39.2667,141.8833,53.6,94,75,16.11,broken clouds
639,Kankaanpaa,FI,61.8,22.4167,33.01,64,0,2.3,clear sky
640,Gawler,AU,-34.6,138.7333,64.99,50,23,5.01,few clouds
641,Hambantota,LK,6.1241,81.1185,77.0,100,75,3.44,broken clouds
642,Quimper,FR,48.0,-4.1,37.4,87,0,4.61,clear sky
643,Portland,US,45.5234,-122.6762,75.99,16,1,13.8,clear sky
644,Botou,CN,38.0667,116.5667,59.32,12,0,16.78,clear sky
645,Jiayuguan,CN,39.8167,98.3,49.55,13,49,3.6,scattered clouds
646,Haines Junction,CA,60.7522,-137.5108,48.2,40,99,2.3,overcast clouds
647,Sherghati,IN,24.5667,84.7833,82.4,65,20,8.66,haze
648,Soe,ID,-9.8607,124.284,77.86,58,8,6.44,clear sky
649,Qasigiannguit,GL,68.8193,-51.1922,5.0,78,90,11.5,overcast clouds
650,Muisne,EC,0.6,-80.0333,75.7,83,100,3.13,overcast clouds
651,Yarada,IN,17.65,83.2667,82.81,68,1,5.91,clear sky
652,Mitsamiouli,KM,-11.3847,43.2844,80.62,78,76,7.11,light rain
653,Bessonovka,RU,53.3097,45.0407,52.0,34,68,5.61,broken clouds
654,Mildura,AU,-34.2,142.15,62.01,41,1,9.22,clear sky
655,Namyslow,PL,51.0759,17.7228,42.01,84,100,10.18,overcast clouds
656,Mineral Wells,US,32.8085,-98.1128,55.99,76,1,17.27,clear sky
657,Inhambane,MZ,-23.865,35.3833,69.35,63,94,16.98,light rain
658,Port Hedland,AU,-20.3167,118.5667,91.4,27,0,21.85,clear sky
659,Chabua,IN,27.4825,95.1736,71.6,83,75,8.05,mist
660,Rudnya,RU,54.947,31.0934,46.96,96,100,9.64,overcast clouds
661,Saint-Augustin,CA,51.226,-58.6502,30.7,79,34,11.05,scattered clouds
662,Mezen,RU,65.8522,44.24,33.24,91,100,10.29,overcast clouds
663,Sao Joao Da Barra,BR,-21.6403,-41.0511,72.61,80,23,8.19,few clouds
664,Sterling,US,39.0062,-77.4286,50.0,50,20,6.91,few clouds
665,Taoudenni,ML,22.6783,-3.9836,78.62,17,85,10.2,overcast clouds
666,Khash,IR,28.2211,61.2158,63.41,28,0,1.97,clear sky
667,Ismailia,EG,30.6043,32.2723,63.9,50,3,8.5,clear sky
668,Sumbe,AO,-11.2061,13.8437,79.11,83,56,4.72,broken clouds
669,Tanakpur,IN,29.0833,80.1167,82.72,27,100,8.34,overcast clouds
670,Lata,PT,40.1629,-8.3327,57.0,84,17,4.63,few clouds
671,Kerrobert,CA,51.9168,-109.1348,53.6,24,1,5.75,clear sky
672,Viedma,AR,-40.8135,-62.9967,60.53,56,54,8.08,broken clouds
673,Boguchany,RU,58.3814,97.4531,18.88,61,8,10.36,clear sky
674,Kahului,US,20.8947,-156.47,78.8,61,40,9.22,scattered clouds
675,Whitianga,NZ,-36.8333,175.7,66.99,62,0,10.0,clear sky
676,Tiarei,PF,-17.5333,-149.3333,86.0,66,20,12.66,light rain
677,Olga,RU,43.7444,135.2892,52.14,58,17,3.53,few clouds
678,Hailar,CN,49.2,119.7,31.66,79,1,9.26,clear sky
679,Mehamn,NO,71.0357,27.8492,39.04,92,100,34.14,overcast clouds
680,Usogorsk,RU,63.4106,48.6872,32.74,90,90,7.18,overcast clouds
681,Lakhipur,IN,26.0299,90.3041,80.55,50,3,7.2,clear sky
682,Moron,AR,-34.6534,-58.6198,69.01,78,24,3.15,few clouds
683,Cotonou,BJ,6.3654,2.4183,82.4,78,20,6.91,few clouds
684,Revelstoke,CA,50.9832,-118.2023,60.8,39,1,4.61,clear sky
685,Bougouni,ML,11.417,-7.479,84.79,44,100,6.35,overcast clouds
686,Rio Cuarto,AR,-33.1307,-64.3499,66.99,90,2,4.0,clear sky
687,Aviles,ES,43.5547,-5.9248,42.8,61,0,5.75,clear sky
688,Bonga,ET,7.2833,36.2333,60.49,82,88,2.62,overcast clouds
689,Matara,LK,5.9485,80.5353,79.45,83,89,3.44,overcast clouds
690,Basco,PH,20.4487,121.9702,79.48,70,36,9.73,scattered clouds
691,Caxito,AO,-8.5785,13.6643,77.0,83,75,2.3,broken clouds
692,Sosnovka,RU,56.255,51.2842,34.56,74,0,5.28,clear sky
693,Urengoy,RU,65.9667,78.3667,13.12,94,100,11.34,light snow
